[
 {
   "City Name": "Abaco",
   "latitude": 28.35,
   "longitude": 77.35,
   "Type": "City",
   "Original Nation": "England",
   "Defenses": "1 Fort",
   "Bank?": "Yes",
   "Shipyard max": "Fast Galleon",
   "Job Ship Type": "Sloop"
 },
 {
   "City Name": "Andros",
   "latitude": 26.73,
   "longitude": 77.91,
   "Type": "City",
   "Original Nation": "England",
   "Defenses": "1 Fort",
   "Bank?": "Yes",
   "Shipyard max": "Fast Galleon",
   "Job Ship Type": "Sloop"
 },
 {
   "City Name": "Anguilla",
   "latitude": 18.77,
   "longitude": 64.17,
   "Type": "City",
   "Original Nation": "England",
   "Defenses": "None",
   "Bank?": "Yes",
   "Shipyard max": "Fast Galleon",
   "Job Ship Type": "Merchant"
 },
 {
   "City Name": "Antigua",
   "latitude": 16.93,
   "longitude": 62.74,
   "Type": "City",
   "Original Nation": "England",
   "Defenses": "2 Forts",
   "Bank?": "Yes",
   "Shipyard max": "Fluyt",
   "Job Ship Type": "Merchant"
 },
 {
   "City Name": "Arecibo",
   "latitude": 18.60,
   "longitude": 67.43,
   "Type": "City",
   "Original Nation": "Spain",
   "Defenses": "None",
   "Bank?": "No",
   "Shipyard max": "Pinnace",
   "Job Ship Type": "Barque"
 },
 {
   "City Name": "Armanuelles",
   "latitude": 5.28,
   "longitude": 81.59,
   "Type": "City",
   "Original Nation": "Spain",
   "Defenses": "City Walls",
   "Bank?": "Yes",
   "Shipyard max": "War Galleon",
   "Job Ship Type": "Frigate"
 },
 {
   "City Name": "Aruba",
   "latitude": 11.11,
   "longitude": 70.58,
   "Type": "City",
   "Original Nation": "Holland",
   "Defenses": "1 Fort",
   "Bank?": "Yes",
   "Shipyard max": "Barque",
   "Job Ship Type": "Sloop"
 },
 {
   "City Name": "Baracoa",
   "latitude": 21.03,
   "longitude": 74.61,
   "Type": "City",
   "Original Nation": "Spain",
   "Defenses": "None",
   "Bank?": "No",
   "Shipyard max": "Merchant",
   "Job Ship Type": "Pinnace"
 },
 {
   "City Name": "Barbados",
   "latitude": 11.84,
   "longitude": 60.70,
   "Type": "City",
   "Original Nation": "England",
   "Defenses": "City Wall",
   "Bank?": "Yes",
   "Shipyard max": "Fluyt",
   "Job Ship Type": "Merchant"
 },
 {
   "City Name": "Barbuda",
   "latitude": 17.55,
   "longitude": 62.77,
   "Type": "City",
   "Original Nation": "England",
   "Defenses": "None",
   "Bank?": "Yes",
   "Shipyard max": "Fast Galleon",
   "Job Ship Type": "Merchant"
 },
 {
   "City Name": "Barcelona",
   "latitude": 7.94,
   "longitude": 65.54,
   "Type": "City",
   "Original Nation": "Spain",
   "Defenses": "City Wall",
   "Bank?": "No",
   "Shipyard max": "Fast Galleon",
   "Job Ship Type": "Barque"
 },
 {
   "City Name": "Basse-Terre",
   "latitude": 15.52,
   "longitude": 62.68,
   "Type": "City",
   "Original Nation": "France",
   "Defenses": "1 Fort",
   "Bank?": "Yes",
   "Shipyard max": "Barque",
   "Job Ship Type": "Frigate"
 },
 {
   "City Name": "Belize City",
   "latitude": 17.51,
   "longitude": 87.84,
   "Type": "City",
   "Original Nation": "Portugal",
   "Defenses": "1 Fort",
   "Bank?": "Yes",
   "Shipyard max": "Frigate",
   "Job Ship Type": "Barque"
 },
 {
   "City Name": "Bermuda",
   "latitude": 34.04,
   "longitude": 65.99,
   "Type": "City",
   "Original Nation": "Pirates",
   "Defenses": "City Wall",
   "Bank?": "Yes",
   "Shipyard max": "Fast Galleon",
   "Job Ship Type": "War Galleon"
 },
 {
   "City Name": "Bluefields",
   "latitude": 10.42,
   "longitude": 83.59,
   "Type": "City",
   "Original Nation": "England",
   "Defenses": "City Wall",
   "Bank?": "Yes",
   "Shipyard max": "Fluyt",
   "Job Ship Type": "Fluyt"
 },
 {
   "City Name": "Bonaire",
   "latitude": 10.55,
   "longitude": 68.93,
   "Type": "City",
   "Original Nation": "Holland",
   "Defenses": "1 Fort",
   "Bank?": "Yes",
   "Shipyard max": "Pinnace",
   "Job Ship Type": "Sloop"
 },
 {
   "City Name": "Caibarian",
   "latitude": 23.77,
   "longitude": 79.46,
   "Type": "Dock",
   "Original Nation": "Spain",
   "Defenses": "None",
   "Bank?": "No",
   "Shipyard max": "Barque",
   "Job Ship Type": "Merchant"
 },
 {
   "City Name": "Camarco",
   "latitude": 23.01,
   "longitude": 82.58,
   "Type": "Dock",
   "Original Nation": "Pirate",
   "Defenses": "None",
   "Bank?": "No",
   "Shipyard max": "Merchant",
   "Job Ship Type": "None Available"
 },
 {
   "City Name": "Campeche",
   "latitude": 20.73,
   "longitude": 89.91,
   "Type": "City",
   "Original Nation": "Spain",
   "Defenses": "1 Fort",
   "Bank?": "Yes",
   "Shipyard max": "Barque",
   "Job Ship Type": "Merchant"
 },
 {
   "City Name": "Cancun",
   "latitude": 22.19,
   "longitude": 86.55,
   "Type": "City",
   "Original Nation": "Spain",
   "Defenses": "None",
   "Bank?": "No",
   "Shipyard max": "Fluyt",
   "Job Ship Type": "Fluyt"
 },
 {
   "City Name": "Caracas",
   "latitude": 8.59,
   "longitude": 67.58,
   "Type": "City",
   "Original Nation": "Spain",
   "Defenses": "City Wall",
   "Bank?": "Yes",
   "Shipyard max": "Spanish Galleon",
   "Job Ship Type": "Pinnace"
 },
 {
   "City Name": "Caratasca",
   "latitude": 14.66,
   "longitude": 83.56,
   "Type": "City",
   "Original Nation": "Spain",
   "Defenses": "City Wall",
   "Bank?": "No",
   "Shipyard max": "Fast Galleon",
   "Job Ship Type": "Pinnace"
 },
 {
   "City Name": "Cartagena",
   "latitude": 8.22,
   "longitude": 75.72,
   "Type": "City",
   "Original Nation": "Spain",
   "Defenses": "1 Fort",
   "Bank?": "Yes",
   "Shipyard max": "Frigate",
   "Job Ship Type": "Merchant"
 },
 {
   "City Name": "Carupano",
   "latitude": 8.66,
   "longitude": 64.29,
   "Type": "City",
   "Original Nation": "Spain",
   "Defenses": "None",
   "Bank?": "No",
   "Shipyard max": "War Galleon",
   "Job Ship Type": "Fluyt"
 },
 {
   "City Name": "Casares",
   "latitude": 9.55,
   "longitude": 85.78,
   "Type": "Portal",
   "Original Nation": "Pirate",
   "Defenses": "None",
   "Bank?": "No",
   "Shipyard max": "Barque",
   "Job Ship Type": "NIL"
 },
 {
   "City Name": "Cat Island",
   "latitude": 26.09,
   "longitude": 75.63,
   "Type": "Dock",
   "Original Nation": "Pirates",
   "Defenses": "None",
   "Bank?": "No",
   "Shipyard max": "Fast Galleon",
   "Job Ship Type": "None Available"
 },
 {
   "City Name": "Chetumal",
   "latitude": 18.71,
   "longitude": 87.80,
   "Type": "City",
   "Original Nation": "Portugal",
   "Defenses": "1 Fort",
   "Bank?": "Yes",
   "Shipyard max": "Fluyt",
   "Job Ship Type": "Barque"
 },
 {
   "City Name": "Choluteca",
   "latitude": 11.90,
   "longitude": 87.63,
   "Type": "Dock",
   "Original Nation": "Spain",
   "Defenses": "None",
   "Bank?": "No",
   "Shipyard max": "Sloop",
   "Job Ship Type": "Frigate"
 },
 {
   "City Name": "Ciudad del Carmen",
   "latitude": 19.02,
   "longitude": 90.82,
   "Type": "City",
   "Original Nation": "Spain",
   "Defenses": "City Wall",
   "Bank?": "Yes",
   "Shipyard max": "Frigate",
   "Job Ship Type": "Frigate"
 },
 {
   "City Name": "Cojoida",
   "latitude": 5.94,
   "longitude": 61.63,
   "Type": "City",
   "Original Nation": "Spain",
   "Defenses": "None",
   "Bank?": "No",
   "Shipyard max": "Barque",
   "Job Ship Type": "Mercant"
 },
 {
   "City Name": "Colon",
   "latitude": 6.95,
   "longitude": 79.90,
   "Type": "City",
   "Original Nation": "Spain",
   "Defenses": "None",
   "Bank?": "No",
   "Shipyard max": "Barque",
   "Job Ship Type": "Frigate"
 },
 {
   "City Name": "Coro",
   "latitude": 9.82,
   "longitude": 70.17,
   "Type": "City",
   "Original Nation": "Spain",
   "Defenses": "None",
   "Bank?": "No",
   "Shipyard max": "Fluyt",
   "Job Ship Type": "War Galleon"
 },
 {
   "City Name": "Corpus Christi",
   "latitude": 30.52,
   "longitude": 96.39,
   "Type": "City",
   "Original Nation": "Spain",
   "Defenses": "None",
   "Bank?": "No",
   "Shipyard max": "Pinnace",
   "Job Ship Type": "War Galleon"
 },
 {
   "City Name": "Cozumel",
   "latitude": 21.17,
   "longitude": 86.57,
   "Type": "City",
   "Original Nation": "Pirates",
   "Defenses": "None",
   "Bank?": "No",
   "Shipyard max": "War Galleon",
   "Job Ship Type": "None Available"
 },
 {
   "City Name": "Cumana",
   "latitude": 8.43,
   "longitude": 65.01,
   "Type": "City",
   "Original Nation": "Spain",
   "Defenses": "City Wall",
   "Bank?": "Yes",
   "Shipyard max": "Pinnace",
   "Job Ship Type": "Barque"
 },
 {
   "City Name": "Curacao",
   "latitude": 10.70,
   "longitude": 69.53,
   "Type": "City",
   "Original Nation": "Holland",
   "Defenses": "1 Fort",
   "Bank?": "Yes",
   "Shipyard max": "War Galleon",
   "Job Ship Type": "Sloop"
 },
 {
   "City Name": "Dominica",
   "latitude": 14.96,
   "longitude": 62.44,
   "Type": "City",
   "Original Nation": "England",
   "Defenses": "City Wall",
   "Bank?": "Yes",
   "Shipyard max": "Fluyt",
   "Job Ship Type": "Frigate"
 },
 {
   "City Name": "Don Diego",
   "latitude": 9.48,
   "longitude": 73.68,
   "Type": "City",
   "Original Nation": "Spain",
   "Defenses": "None",
   "Bank?": "No",
   "Shipyard max": "Sloop",
   "Job Ship Type": "Fluyt"
 },
 {
   "City Name": "El Macao",
   "latitude": 19.10,
   "longitude": 69.55,
   "Type": "City",
   "Original Nation": "Spain",
   "Defenses": "None",
   "Bank?": "No",
   "Shipyard max": "Sloop",
   "Job Ship Type": "Barque"
 },
 {
   "City Name": "Eleuthera",
   "latitude": 27.15,
   "longitude": 76.37,
   "Type": "City",
   "Original Nation": "England",
   "Defenses": "2 Forts",
   "Bank?": "Yes",
   "Shipyard max": "War Galleon",
   "Job Ship Type": "Sloop"
 },
 {
   "City Name": "Espiritu Santo",
   "latitude": 18.19,
   "longitude": 93.66,
   "Type": "Dock",
   "Original Nation": "Spain",
   "Defenses": "None",
   "Bank?": "No",
   "Shipyard max": "Pinnace",
   "Job Ship Type": "War Galleon"
 },
 {
   "City Name": "Florida Keys",
   "latitude": 26.36,
   "longitude": 81.52,
   "Type": "City",
   "Original Nation": "Holland",
   "Defenses": "None",
   "Bank?": "No",
   "Shipyard max": "Fluyt",
   "Job Ship Type": "Fluyt"
 },
 {
   "City Name": "Fort Caroline",
   "latitude": 33.93,
   "longitude": 81.27,
   "Type": "City",
   "Original Nation": "France",
   "Defenses": "1 Fort",
   "Bank?": "Yes",
   "Shipyard max": "Merchant",
   "Job Ship Type": "Fluyt"
 },
 {
   "City Name": "Fort Lauderdale",
   "latitude": 28.70,
   "longitude": 80.05,
   "Type": "City",
   "Original Nation": "France",
   "Defenses": "None",
   "Bank?": "No",
   "Shipyard max": "Spanish Galleon",
   "Job Ship Type": "Fluyt"
 },
 {
   "City Name": "Fort Louis de la Mobile",
   "latitude": 34.30,
   "longitude": 87.58,
   "Type": "City",
   "Original Nation": "France",
   "Defenses": "None",
   "Bank?": "No",
   "Shipyard max": "Fluyt",
   "Job Ship Type": "Frigate"
 },
 {
   "City Name": "Fort-de-France",
   "latitude": 13.62,
   "longitude": 62.07,
   "Type": "City",
   "Original Nation": "France",
   "Defenses": "None",
   "Bank?": "No",
   "Shipyard max": "Spanish Galleon",
   "Job Ship Type": "Frigate"
 },
 {
   "City Name": "Galveston Bay",
   "latitude": 33.09,
   "longitude": 93.82,
   "Type": "City",
   "Original Nation": "Spain",
   "Defenses": "City Wall",
   "Bank?": "Yes",
   "Shipyard max": "Merchant",
   "Job Ship Type": "War Galleon"
 },
 {
   "City Name": "George Town",
   "latitude": 19.61,
   "longitude": 81.31,
   "Type": "City",
   "Original Nation": "Portugal",
   "Defenses": "None",
   "Bank?": "No",
   "Shipyard max": "War Galleon",
   "Job Ship Type": "War Galleon"
 },
 {
   "City Name": "Gibara",
   "latitude": 21.99,
   "longitude": 76.39,
   "Type": "City",
   "Original Nation": "Spain",
   "Defenses": "None",
   "Bank?": "No",
   "Shipyard max": "Fluyt",
   "Job Ship Type": "Barque"
 },
 {
   "City Name": "Gibraltar",
   "latitude": 6.98,
   "longitude": 71.52,
   "Type": "City",
   "Original Nation": "Spain",
   "Defenses": "None",
   "Bank?": "No",
   "Shipyard max": "Pinnace",
   "Job Ship Type": "Barque"
 },
 {
   "City Name": "Gran Granada",
   "latitude": 10.27,
   "longitude": 85.68,
   "Type": "City",
   "Original Nation": "Spain",
   "Defenses": "2 Forts",
   "Bank?": "Yes",
   "Shipyard max": "War Galleon",
   "Job Ship Type": "Fluyt"
 },
 {
   "City Name": "Grand Bahama",
   "latitude": 29.02,
   "longitude": 78.41,
   "Type": "City",
   "Original Nation": "Holland",
   "Defenses": "City Wall",
   "Bank?": "Yes",
   "Shipyard max": "War Galleon",
   "Job Ship Type": "Pinnace"
 },
 {
   "City Name": "Grand Turk",
   "latitude": 22.48,
   "longitude": 71.58,
   "Type": "City",
   "Original Nation": "England",
   "Defenses": "None",
   "Bank?": "Yes",
   "Shipyard max": "Fluyt",
   "Job Ship Type": "Barque"
 },
 {
   "City Name": "Havana",
   "latitude": 24.74,
   "longitude": 82.15,
   "Type": "City",
   "Original Nation": "Spain",
   "Defenses": "2 Forts",
   "Bank?": "Yes",
   "Shipyard max": "War Galleon",
   "Job Ship Type": "Merchant"
 },
 {
   "City Name": "Iriona",
   "latitude": 15.35,
   "longitude": 84.95,
   "Type": "City",
   "Original Nation": "Spain",
   "Defenses": "2 Forts",
   "Bank?": "Yes",
   "Shipyard max": "Frigate",
   "Job Ship Type": "Sloop"
 },
 {
   "City Name": "Isla Beata",
   "latitude": 17.67,
   "longitude": 72.15,
   "Type": "City",
   "Original Nation": "Spain",
   "Defenses": "None",
   "Bank?": "No",
   "Shipyard max": "Fast Galleon",
   "Job Ship Type": "Baque"
 },
 {
   "City Name": "Joana",
   "latitude": 6.81,
   "longitude": 61.34,
   "Type": "City",
   "Original Nation": "Spain",
   "Defenses": "None",
   "Bank?": "No",
   "Shipyard max": "Fast Galleon",
   "Job Ship Type": "Merchant"
 },
 {
   "City Name": "Kingstown",
   "latitude": 11.68,
   "longitude": 62.14,
   "Type": "City",
   "Original Nation": "England",
   "Defenses": "None",
   "Bank?": "Yes",
   "Shipyard max": "Fluyt",
   "Job Ship Type": "Merchant"
 },
 {
   "City Name": "La Ceiba",
   "latitude": 15.23,
   "longitude": 86.33,
   "Type": "City",
   "Original Nation": "Spain",
   "Defenses": "2 Forts",
   "Bank?": "Yes",
   "Shipyard max": "Fast Galleon",
   "Job Ship Type": "Sloop"
 },
 {
   "City Name": "Limon",
   "latitude": 15.35,
   "longitude": 85.85,
   "Type": "City",
   "Original Nation": "Spain",
   "Defenses": "1 Fort",
   "Bank?": "Yes",
   "Shipyard max": "Fast Galleon",
   "Job Ship Type": "Sloop"
 },
 {
   "City Name": "Manzanillo",
   "latitude": 21.07,
   "longitude": 77.30,
   "Type": "City",
   "Original Nation": "Spain",
   "Defenses": "None",
   "Bank?": "No",
   "Shipyard max": "Frigate",
   "Job Ship Type": "Barque"
 },
 {
   "City Name": "Maracaibo",
   "latitude": 8.65,
   "longitude": 72.04,
   "Type": "City",
   "Original Nation": "Spain",
   "Defenses": "1 Fort",
   "Bank?": "Yes",
   "Shipyard max": "Frigate",
   "Job Ship Type": "Barque"
 },
 {
   "City Name": "Margarita",
   "latitude": 9.10,
   "longitude": 65.18,
   "Type": "City",
   "Original Nation": "Holland",
   "Defenses": "2 Forts",
   "Bank?": "Yes",
   "Shipyard max": "Barque",
   "Job Ship Type": "Barque"
 },
 {
   "City Name": "Marie-Galante",
   "latitude": 15.39,
   "longitude": 62.30,
   "Type": "City",
   "Original Nation": "France",
   "Defenses": "1 Fort",
   "Bank?": "Yes",
   "Shipyard max": "Fast Galleon",
   "Job Ship Type": "Frigate"
 },
 {
   "City Name": "Matanzas",
   "latitude": 24.58,
   "longitude": 81.49,
   "Type": "City",
   "Original Nation": "Spain",
   "Defenses": "None",
   "Bank?": "No",
   "Shipyard max": "Pinnace",
   "Job Ship Type": "Merchant"
 },
 {
   "City Name": "Matthew Town",
   "latitude": 21.78,
   "longitude": 74.02,
   "Type": "City",
   "Original Nation": "England",
   "Defenses": "None",
   "Bank?": "No",
   "Shipyard max": "War Galleon",
   "Job Ship Type": "Pinnace"
 },
 {
   "City Name": "Monte Cristi",
   "latitude": 20.50,
   "longitude": 72.26,
   "Type": "City",
   "Original Nation": "France",
   "Defenses": "2 Forts",
   "Bank?": "Yes",
   "Shipyard max": "Fast Galleon",
   "Job Ship Type": "Sloop"
 },
 {
   "City Name": "Montego Bay",
   "latitude": 18.82,
   "longitude": 78.04,
   "Type": "City",
   "Original Nation": "England",
   "Defenses": "None",
   "Bank?": "No",
   "Shipyard max": "Spanish Galleon",
   "Job Ship Type": "Merchant"
 },
 {
   "City Name": "Montserrat",
   "latitude": 16.42,
   "longitude": 63.17,
   "Type": "City",
   "Original Nation": "England",
   "Defenses": "1 Forts",
   "Bank?": "Yes",
   "Shipyard max": "Merchant",
   "Job Ship Type": "Merchant"
 },
 {
   "City Name": "Nassau",
   "latitude": 27.19,
   "longitude": 77.61,
   "Type": "City",
   "Original Nation": "England",
   "Defenses": "1 Forts",
   "Bank?": "Yes",
   "Shipyard max": "Fluyt",
   "Job Ship Type": "Sloop"
 },
 {
   "City Name": "Navassa Island",
   "latitude": 18.51,
   "longitude": 75.45,
   "Type": "Dock",
   "Original Nation": "Spain",
   "Defenses": "None",
   "Bank?": "No",
   "Shipyard max": "Sloop",
   "Job Ship Type": "Barque"
 },
 {
   "City Name": "Nevis",
   "latitude": 16.96,
   "longitude": 63.54,
   "Type": "City",
   "Original Nation": "England",
   "Defenses": "City Wall",
   "Bank?": "Yes",
   "Shipyard max": "War Galleon",
   "Job Ship Type": "Merchant"
 },
 {
   "City Name": "New Orleans",
   "latitude": 33.51,
   "longitude": 89.48,
   "Type": "City",
   "Original Nation": "France",
   "Defenses": "None",
   "Bank?": "No",
   "Shipyard max": "War Galleon",
   "Job Ship Type": "Frigate"
 },
 {
   "City Name": "Nombre de Dios",
   "latitude": 7.24,
   "longitude": 79.23,
   "Type": "City",
   "Original Nation": "Spain",
   "Defenses": "None",
   "Bank?": "No",
   "Shipyard max": "Barque",
   "Job Ship Type": "Frigate"
 },
 {
   "City Name": "Nuestra Senora de Guadalupe de Reynosa",
   "latitude": 28.37,
   "longitude": 97.14,
   "Type": "Dock",
   "Original Nation": "Spain",
   "Defenses": "None",
   "Bank?": "No",
   "Shipyard max": "Fluyt",
   "Job Ship Type": "War Galleon"
 },
 {
   "City Name": "Old Biloxi",
   "latitude": 33.92,
   "longitude": 88.56,
   "Type": "Dock",
   "Original Nation": "France",
   "Defenses": "None",
   "Bank?": "No",
   "Shipyard max": "Pinnace",
   "Job Ship Type": "Frigate"
 },
 {
   "City Name": "Pedernales",
   "latitude": 7.72,
   "longitude": 63.15,
   "Type": "City",
   "Original Nation": "Spain",
   "Defenses": "None",
   "Bank?": "Yes",
   "Shipyard max": "Sloop",
   "Job Ship Type": "Merchant"
 },
 {
   "City Name": "Petit-Goave",
   "latitude": 18.76,
   "longitude": 73.18,
   "Type": "City",
   "Original Nation": "France",
   "Defenses": "None",
   "Bank?": "No",
   "Shipyard max": "Fluyt",
   "Job Ship Type": "Pinnace"
 },
 {
   "City Name": "Pointe a la Hache",
   "latitude": 32.89,
   "longitude": 89.21,
   "Type": "City",
   "Original Nation": "Spain",
   "Defenses": "None",
   "Bank?": "Yes",
   "Shipyard max": "Fast Galleon",
   "Job Ship Type": "Frigate"
 },
 {
   "City Name": "Pointe-a-Pitre",
   "latitude": 15.81,
   "longitude": 62.49,
   "Type": "City",
   "Original Nation": "France",
   "Defenses": "2 Forts",
   "Bank?": "Yes",
   "Shipyard max": "Pinnace",
   "Job Ship Type": "Frigate"
 },
 {
   "City Name": "Ponce",
   "latitude": 17.95,
   "longitude": 67.38,
   "Type": "City",
   "Original Nation": "Spain",
   "Defenses": "None",
   "Bank?": "No",
   "Shipyard max": "War Galleon",
   "Job Ship Type": "Fluyt"
 },
 {
   "City Name": "Port Antonio",
   "latitude": 18.45,
   "longitude": 76.61,
   "Type": "City",
   "Original Nation": "England",
   "Defenses": "None",
   "Bank?": "No",
   "Shipyard max": "Barque",
   "Job Ship Type": "Barque"
 },
 {
   "City Name": "Port of Spain",
   "latitude": 8.63,
   "longitude": 62.55,
   "Type": "City",
   "Original Nation": "Spain",
   "Defenses": "None",
   "Bank?": "No",
   "Shipyard max": "War Galleon",
   "Job Ship Type": "Fluyt"
 },
 {
   "City Name": "Port Royal",
   "latitude": 18.04,
   "longitude": 77.14,
   "Type": "City",
   "Original Nation": "England",
   "Defenses": "None",
   "Bank?": "Yes",
   "Shipyard max": "Pinnace",
   "Job Ship Type": "Barque"
 },
 {
   "City Name": "Port Salut",
   "latitude": 18.37,
   "longitude": 74.29,
   "Type": "City",
   "Original Nation": "France",
   "Defenses": "None",
   "Bank?": "Yes",
   "Shipyard max": "Frigate",
   "Job Ship Type": "Pinnace"
 },
 {
   "City Name": "Port St. Joseph",
   "latitude": 33.15,
   "longitude": 85.13,
   "Type": "Dock",
   "Original Nation": "France",
   "Defenses": "None",
   "Bank?": "No",
   "Shipyard max": "Barque",
   "Job Ship Type": "Merchant"
 },
 {
   "City Name": "Port-de-Paix",
   "latitude": 20.42,
   "longitude": 73.25,
   "Type": "City",
   "Original Nation": "France",
   "Defenses": "1 Fort",
   "Bank?": "Yes",
   "Shipyard max": "Pinnace",
   "Job Ship Type": "Sloop"
 },
 {
   "City Name": "Prinzapolca",
   "latitude": 12.08,
   "longitude": 83.35,
   "Type": "City",
   "Original Nation": "England",
   "Defenses": "None",
   "Bank?": "No",
   "Shipyard max": "Fast Galleon",
   "Job Ship Type": "Barque"
 },
 {
   "City Name": "Providence",
   "latitude": 12.17,
   "longitude": 81.30,
   "Type": "City",
   "Original Nation": "England",
   "Defenses": "City Wall",
   "Bank?": "Yes",
   "Shipyard max": "Merchant",
   "Job Ship Type": "Barque"
 },
 {
   "City Name": "Pueblo Nuevo",
   "latitude": 15.56,
   "longitude": 96.83,
   "Type": "Dock",
   "Original Nation": "Spain",
   "Defenses": "None",
   "Bank?": "No",
   "Shipyard max": "Pinnace",
   "Job Ship Type": "Nil"
 },
 {
   "City Name": "Puerto Barrios",
   "latitude": 15.18,
   "longitude": 88.17,
   "Type": "City",
   "Original Nation": "Spain",
   "Defenses": "City Wall",
   "Bank?": "Yes",
   "Shipyard max": "Barque",
   "Job Ship Type": "Pinnace"
 },
 {
   "City Name": "Puerto Bello",
   "latitude": 7.19,
   "longitude": 79.70,
   "Type": "City",
   "Original Nation": "England",
   "Defenses": "None",
   "Bank?": "Yes",
   "Shipyard max": "Barque",
   "Job Ship Type": "Frigate"
 },
 {
   "City Name": "Puerto Cabello",
   "latitude": 8.43,
   "longitude": 68.64,
   "Type": "City",
   "Original Nation": "Spain",
   "Defenses": "2 Forts",
   "Bank?": "Yes",
   "Shipyard max": "Spanish Galleon",
   "Job Ship Type": "Pinnace"
 },
 {
   "City Name": "Puerto Cabezas",
   "latitude": 12.99,
   "longitude": 83.20,
   "Type": "Dock",
   "Original Nation": "England",
   "Defenses": "None",
   "Bank?": "No",
   "Shipyard max": "Sloop",
   "Job Ship Type": "Barque"
 },
 {
   "City Name": "Puerto Cortes",
   "latitude": 15.34,
   "longitude": 87.51,
   "Type": "City",
   "Original Nation": "Spain",
   "Defenses": "None",
   "Bank?": "Yes",
   "Shipyard max": "Pinnace",
   "Job Ship Type": "Pinnace"
 },
 {
   "City Name": "Puerto Estrella",
   "latitude": 10.85,
   "longitude": 71.78,
   "Type": "City",
   "Original Nation": "Spain",
   "Defenses": "2 Forts",
   "Bank?": "Yes",
   "Shipyard max": "Fluyt",
   "Job Ship Type": "Pinnace"
 },
 {
   "City Name": "Puerto Plata",
   "latitude": 20.31,
   "longitude": 71.22,
   "Type": "City",
   "Original Nation": "France",
   "Defenses": "2 Forts",
   "Bank?": "Yes",
   "Shipyard max": "Fast Galleon",
   "Job Ship Type": "Sloop"
 },
 {
   "City Name": "Punta Gorda",
   "latitude": 29.23,
   "longitude": 82.10,
   "Type": "City",
   "Original Nation": "Spain",
   "Defenses": "City Wall",
   "Bank?": "Yes",
   "Shipyard max": "Fast Galleon",
   "Job Ship Type": "Fluyt"
 },
 {
   "City Name": "Punto Fijo",
   "latitude": 10.04,
   "longitude": 70.79,
   "Type": "City",
   "Original Nation": "Spain",
   "Defenses": "None",
   "Bank?": "No",
   "Shipyard max": "Merchant",
   "Job Ship Type": "War Galleon"
 },
 {
   "City Name": "Puntarenas",
   "latitude": 7.10,
   "longitude": 84.35,
   "Type": "City",
   "Original Nation": "Spain",
   "Defenses": "2 Forts",
   "Bank?": "Yes",
   "Shipyard max": "Fast Galleon",
   "Job Ship Type": "War Galleon"
 },
 {
   "City Name": "Road Town",
   "latitude": 18.45,
   "longitude": 65.17,
   "Type": "City",
   "Original Nation": "England",
   "Defenses": "1 Forts",
   "Bank?": "Yes",
   "Shipyard max": "Merchant",
   "Job Ship Type": "Fluyt"
 },
 {
   "City Name": "Roatan",
   "latitude": 15.67,
   "longitude": 86.10,
   "Type": "Dock",
   "Original Nation": "Pirates",
   "Defenses": "None",
   "Bank?": "No",
   "Shipyard max": "Fast Galleon",
   "Job Ship Type": "None Available"
 },
 {
   "City Name": "Saba",
   "latitude": 17.65,
   "longitude": 64.29,
   "Type": "City",
   "Original Nation": "Holland",
   "Defenses": "None",
   "Bank?": "No",
   "Shipyard max": "Pinnace",
   "Job Ship Type": "Merchant"
 },
 {
   "City Name": "Saint Eustatius",
   "latitude": 17.47,
   "longitude": 63.95,
   "Type": "City",
   "Original Nation": "Holland",
   "Defenses": "None",
   "Bank?": "No",
   "Shipyard max": "Merchant",
   "Job Ship Type": "Merchant"
 },
 {
   "City Name": "Saint Lucia",
   "latitude": 13.06,
   "longitude": 61.98,
   "Type": "City",
   "Original Nation": "France",
   "Defenses": "None",
   "Bank?": "No",
   "Shipyard max": "Frigate",
   "Job Ship Type": "Merchant"
 },
 {
   "City Name": "Sainte Marie",
   "latitude": 13.89,
   "longitude": 62.01,
   "Type": "City",
   "Original Nation": "France",
   "Defenses": "None",
   "Bank?": "Yes",
   "Shipyard max": "Fast Galleon",
   "Job Ship Type": "Frigate"
 },
 {
   "City Name": "San Andres",
   "latitude": 11.07,
   "longitude": 81.59,
   "Type": "Dock",
   "Original Nation": "Pirates",
   "Defenses": "None",
   "Bank?": "No",
   "Shipyard max": "Fast Galleon",
   "Job Ship Type": "None Available"
 },
 {
   "City Name": "San Carlos",
   "latitude": 9.30,
   "longitude": 84.59,
   "Type": "Dock",
   "Original Nation": "Spain",
   "Defenses": "None",
   "Bank?": "No",
   "Shipyard max": "Sloop",
   "Job Ship Type": "Fluyt"
 },
 {
   "City Name": "San Juan",
   "latitude": 18.59,
   "longitude": 66.76,
   "Type": "City",
   "Original Nation": "Spain",
   "Defenses": "2 Forts",
   "Bank?": "Yes",
   "Shipyard max": "Sloop",
   "Job Ship Type": "Fluyt"
 },
 {
   "City Name": "San Juan del Norte",
   "latitude": 9.05,
   "longitude": 83.60,
   "Type": "Dock",
   "Original Nation": "Spain",
   "Defenses": "None",
   "Bank?": "No",
   "Shipyard max": "Sloop",
   "Job Ship Type": "Fluyt"
 },
 {
   "City Name": "San Rafael de Curiapo",
   "latitude": 5.21,
   "longitude": 61.38,
   "Type": "City",
   "Original Nation": "Spain",
   "Defenses": "City Wall",
   "Bank?": "Yes",
   "Shipyard max": "Pinnace",
   "Job Ship Type": "Merchant"
 },
 {
   "City Name": "San Ramos",
   "latitude": 9.66,
   "longitude": 85.55,
   "Type": "Portal",
   "Original Nation": "Pirate",
   "Defenses": "None",
   "Bank?": "No",
   "Shipyard max": "Sloop",
   "Job Ship Type": "NIL"
 },
 {
   "City Name": "San Sebastian",
   "latitude": 5.70,
   "longitude": 76.96,
   "Type": "Dock",
   "Original Nation": "Spain",
   "Defenses": "None",
   "Bank?": "No",
   "Shipyard max": "Sloop",
   "Job Ship Type": "Frigate"
 },
 {
   "City Name": "Santa Maria",
   "latitude": 6.67,
   "longitude": 71.85,
   "Type": "City",
   "Original Nation": "Spain",
   "Defenses": "None",
   "Bank?": "No",
   "Shipyard max": "Fluyt",
   "Job Ship Type": "Barque"
 },
 {
   "City Name": "Santa Maria de Galve",
   "latitude": 33.94,
   "longitude": 86.91,
   "Type": "City",
   "Original Nation": "Spain",
   "Defenses": "None",
   "Bank?": "No",
   "Shipyard max": "Sloop",
   "Job Ship Type": "Merchant"
 },
 {
   "City Name": "Santa Maria de la Antigua",
   "latitude": 5.67,
   "longitude": 77.27,
   "Type": "Dock",
   "Original Nation": "Spain",
   "Defenses": "None",
   "Bank?": "No",
   "Shipyard max": "Sloop",
   "Job Ship Type": "Frigate"
 },
 {
   "City Name": "Santa Marta",
   "latitude": 9.34,
   "longitude": 74.53,
   "Type": "City",
   "Original Nation": "Spain",
   "Defenses": "1 Forts",
   "Bank?": "Yes",
   "Shipyard max": "Merchant",
   "Job Ship Type": "Fluyt"
 },
 {
   "City Name": "Santiago de Cuba",
   "latitude": 20.51,
   "longitude": 76.10,
   "Type": "City",
   "Original Nation": "Spain",
   "Defenses": "2 Forts",
   "Bank?": "Yes",
   "Shipyard max": "Frigate",
   "Job Ship Type": "Barque"
 },
 {
   "City Name": "Santo Domingo",
   "latitude": 18.72,
   "longitude": 70.71,
   "Type": "City",
   "Original Nation": "Spain",
   "Defenses": "City Wall",
   "Bank?": "Yes",
   "Shipyard max": "Spanish Galleon",
   "Job Ship Type": "Pinnace"
 },
 {
   "City Name": "Sint Maarten",
   "latitude": 18.58,
   "longitude": 64.07,
   "Type": "City",
   "Original Nation": "Holland",
   "Defenses": "City Wall",
   "Bank?": "Yes",
   "Shipyard max": "Fluyt",
   "Job Ship Type": "Merchant"
 },
 {
   "City Name": "South Andros",
   "latitude": 25.73,
   "longitude": 77.67,
   "Type": "City",
   "Original Nation": "England",
   "Defenses": "None",
   "Bank?": "Yes",
   "Shipyard max": "Fast Galleon",
   "Job Ship Type": "Sloop"
 },
 {
   "City Name": "Spring Point",
   "latitude": 23.92,
   "longitude": 74.29,
   "Type": "City",
   "Original Nation": "England",
   "Defenses": "None",
   "Bank?": "Yes",
   "Shipyard max": "Pinnace",
   "Job Ship Type": "Pinnace"
 },
 {
   "City Name": "St. Augustine",
   "latitude": 33.30,
   "longitude": 81.08,
   "Type": "City",
   "Original Nation": "Spain",
   "Defenses": "1 Forts",
   "Bank?": "Yes",
   "Shipyard max": "Fluyt",
   "Job Ship Type": "Fluyt"
 },
 {
   "City Name": "St. George's",
   "latitude": 10.46,
   "longitude": 62.75,
   "Type": "City",
   "Original Nation": "France",
   "Defenses": "None",
   "Bank?": "Yes",
   "Shipyard max": "Pinnace",
   "Job Ship Type": "Merchant"
 },
 {
   "City Name": "St. John",
   "latitude": 18.36,
   "longitude": 65.39,
   "Type": "City",
   "Original Nation": "England",
   "Defenses": "None",
   "Bank?": "Yes",
   "Shipyard max": "Pinnace",
   "Job Ship Type": "Fluyt"
 },
 {
   "City Name": "St. Kitts",
   "latitude": 17.16,
   "longitude": 63.65,
   "Type": "City",
   "Original Nation": "England",
   "Defenses": "1 Forts",
   "Bank?": "Yes",
   "Shipyard max": "Fluyt",
   "Job Ship Type": "Merchant"
 },
 {
   "City Name": "St. Miguel",
   "latitude": 12.42,
   "longitude": 89.27,
   "Type": "City",
   "Original Nation": "Spain",
   "Defenses": "2 Forts",
   "Bank?": "Yes",
   "Shipyard max": "War Galleon",
   "Job Ship Type": "Frigate"
 },
 {
   "City Name": "St. Thomas",
   "latitude": 18.41,
   "longitude": 65.64,
   "Type": "City",
   "Original Nation": "England",
   "Defenses": "None",
   "Bank?": "No",
   "Shipyard max": "Spanish Galleon",
   "Job Ship Type": "Fluyt"
 },
 {
   "City Name": "Swan Islands",
   "latitude": 16.71,
   "longitude": 83.74,
   "Type": "Dock",
   "Original Nation": "Pirates",
   "Defenses": "None",
   "Bank?": "No",
   "Shipyard max": "Sloop",
   "Job Ship Type": "None Available"
 },
 {
   "City Name": "Tampa",
   "latitude": 30.75,
   "longitude": 82.51,
   "Type": "City",
   "Original Nation": "France",
   "Defenses": "None",
   "Bank?": "No",
   "Shipyard max": "Frigate",
   "Job Ship Type": "Fluyt"
 },
 {
   "City Name": "Tampico",
   "latitude": 23.46,
   "longitude": 96.74,
   "Type": "City",
   "Original Nation": "Spain",
   "Defenses": "None",
   "Bank?": "Yes",
   "Shipyard max": "Fast Galleon",
   "Job Ship Type": "War Galleon"
 },
 {
   "City Name": "Tobago",
   "latitude": 9.45,
   "longitude": 61.55,
   "Type": "City",
   "Original Nation": "Holland",
   "Defenses": "City Wall",
   "Bank?": "No",
   "Shipyard max": "Barque",
   "Job Ship Type": "Fluyt"
 },
 {
   "City Name": "Tortuga",
   "latitude": 20.73,
   "longitude": 73.29,
   "Type": "City",
   "Original Nation": "France",
   "Defenses": "2 Forts",
   "Bank?": "Yes",
   "Shipyard max": "War Galleon",
   "Job Ship Type": "Sloop"
 },
 {
   "City Name": "Tortuguero",
   "latitude": 7.44,
   "longitude": 82.62,
   "Type": "City",
   "Original Nation": "Spain",
   "Defenses": "None",
   "Bank?": "Yes",
   "Shipyard max": "Fluyt",
   "Job Ship Type": "Merchant"
 },
 {
   "City Name": "Trinidad",
   "latitude": 8.22,
   "longitude": 62.37,
   "Type": "City",
   "Original Nation": "Spain",
   "Defenses": "City Wall",
   "Bank?": "Yes",
   "Shipyard max": "Barque",
   "Job Ship Type": "Fluyt"
 },
 {
   "City Name": "Trinidad de Cuba",
   "latitude": 22.82,
   "longitude": 80.04,
   "Type": "City",
   "Original Nation": "Spain",
   "Defenses": "None",
   "Bank?": "Yes",
   "Shipyard max": "War Galleon",
   "Job Ship Type": "Merchant"
 },
 {
   "City Name": "Tucatula",
   "latitude": 16.26,
   "longitude": 98.51,
   "Type": "City",
   "Original Nation": "Portugal",
   "Defenses": "City Walls",
   "Bank?": "Yes",
   "Shipyard max": "Fast Galleon",
   "Job Ship Type": "War Galleon"
 },
 {
   "City Name": "Tucupita",
   "latitude": 5.77,
   "longitude": 63.01,
   "Type": "City",
   "Original Nation": "Spain",
   "Defenses": "1 Forts",
   "Bank?": "Yes",
   "Shipyard max": "Frigate",
   "Job Ship Type": "Merchant"
 },
 {
   "City Name": "Vera Cruz",
   "latitude": 19.72,
   "longitude": 95.51,
   "Type": "City",
   "Original Nation": "Spain",
   "Defenses": "City Wall",
   "Bank?": "Yes",
   "Shipyard max": "Fast Galleon",
   "Job Ship Type": "Frigate"
 },
 {
   "City Name": "Victoria Hill",
   "latitude": 25.81,
   "longitude": 74.78,
   "Type": "City",
   "Original Nation": "England",
   "Defenses": "1 Forts",
   "Bank?": "Yes",
   "Shipyard max": "Fluyt",
   "Job Ship Type": "Pinnace"
 },
 {
   "City Name": "Villa Hermosa",
   "latitude": 17.73,
   "longitude": 92.18,
   "Type": "City",
   "Original Nation": "Spain",
   "Defenses": "City Wall",
   "Bank?": "Yes",
   "Shipyard max": "Fast Galleon",
   "Job Ship Type": "War Galleon"
 },
 {
   "City Name": "Yaguana",
   "latitude": 18.90,
   "longitude": 72.83,
   "Type": "City",
   "Original Nation": "France",
   "Defenses": "1 Fort",
   "Bank?": "Yes",
   "Shipyard max": "Barque",
   "Job Ship Type": "Barque"
 }
]
